{
	"buildingInfo": [
		{
			"id": 1,
			"name": "深圳市图书馆",
			"address": "广东省深圳市福田区福中一路2001号",
			"longitude": 114.063825,
			"latitude": 22.551343
		},
		{
			"id": 2,
			"name": "深圳市民中心",
			"address": "广东省深圳市福田区沙井大道180",
			"longitude": 114.066174,
			"latitude": 22.549353
		},
		{
			"id": 3,
			"name": "深圳会展中心",
			"address": "广东省深圳市福田区福田ＣＢＤ福华三路111号",
			"longitude": 114.066337,
			"latitude": 22.536516
		},
		{
			"id": 4,
			"name": "深圳市莲花山公园",
			"address": "广东省深圳市福田区莲峰西径",
			"longitude": 114.065193,
			"latitude": 22.559257
		},
		{
			"id": 5,
			"name": "深圳北站",
			"address": "广东省深圳市龙华区民塘路",
			"longitude": 114.063825,
			"latitude": 22.551343
		},
		{
			"id": 6,
			"name": "地王大厦",
			"address": "广东省深圳市罗湖区深南东路5002号",
			"longitude": 114.116516,
			"latitude": 22.548831
		},
		{
			"id": 7,
			"name": "腾讯科技",
			"address": "广东省深圳市南山区深南大道10000",
			"longitude": 113.941133,
			"latitude": 22.545999
		},
		{
			"id": 8,
			"name": "宝安国际机场",
			"address": "广东省深圳市宝安区",
			"longitude": 113.819126,
			"latitude": 22.631878
		},
		{
			"id": 9,
			"name": "世界之窗",
			"address": "广东省深圳市南山区深南大道9028号",
			"longitude": 113.981919,
			"latitude": 22.542119
		},
		{
			"id": 10,
			"name": "欢乐海岸",
			"address": "广东省深圳市南山区",
			"longitude": 113.997028,
			"latitude": 22.5299
		},
		{
			"id": 11,
			"name": "深圳大学",
			"address": "广东省深圳市南山区深大北路",
			"longitude": 113.942651,
			"latitude": 22.53945
		},
		{
			"id": 12,
			"name": "南方科技大学",
			"address": "广东省深圳市南山区",
			"longitude": 114.005913,
			"latitude": 22.603944
		},
		{
			"id": 13,
			"name": "荔枝公园",
			"address": "广东省深圳市福田区红岭中路东门",
			"longitude": 114.11061,
			"latitude": 22.551628
		},
		{
			"id": 14,
			"name": "少年宫",
			"address": "广东省深圳市福田区福中一路2002",
			"longitude": 114.068405,
			"latitude": 22.552513
		},
		{
			"id": 15,
			"name": "深圳人才公园",
			"address": "广东省深圳市南山区登良路",
			"longitude": 113.95282,
			"latitude": 22.517362
		},
		{
			"id": 16,
			"name": "中山公园",
			"address": "广东省深圳市南山区南山大道3111-3",
			"longitude": 113.929172,
			"latitude": 22.55622
		},
		{
			"id": 17,
			"name": "华为科技",
			"address": "广东省深圳市龙岗区稼先路-3",
			"longitude": 114.066932,
			"latitude": 22.656813
		},
		{
			"id": 18,
			"name": "东门老街",
			"address": "广东省深圳市罗湖区深南东路3020-8",
			"longitude": 114.124833,
			"latitude": 22.55018
		}
	]
}
